



{
  "name": "fine dining",
  "address": "/dining/fine",
  "content": {
    "text": {
      "banner": {
        "image": "grand-luxxe-banner.jpg",
        "header": "nuevo vallarta",
        "subheader": "fine dining"
      },
      "description": "Browse our selection of casual dining options at Vidanta Nuevo Vallarta.",
      "header": "Flavorful Food for Every Mood",
      "title": "fine dining"
    },
    "images": {
      "gallery": [],
      "thumbnail": "fine-dining-thumbnail.jpg"
    }
  }
},
{
  "name": "azur",
  "address": "/dining/fine/azur",
  "content": {
    "text": {
      "banner-header": "",
      "banner-subheader": "",
      "description": "",
      "header": "",
      "title": ""
    },
    "images": {
      "banner": "",
      "gallery": [],
      "thumbnail": ""
    },
    "location": "At La Plaza, 3rd Floor",
    "times":  {
                "days": "Monday - Sunday",
                "hours": "7 AM - 11 PM"
              }

  }
}




















"costa arena": {
  "address": "/dining/fine/costa-arena",
  "content": {
    "text": {
      "banner-header": "",
      "banner-subheader": "",
      "description": "",
      "header": "",
      "title": "",
    },
    "images": {
      "banner": "",
      "gallery": [],
      "thumbnail": "",
    },
    "location": "By the Grand Luxxe Punta Pool",
    "times":  {
                "days": "Monday - Sunday",
                "hours": "11 AM – 11 PM",
              },
  }
},
"epazote": {
  "address": "/dining/fine/epazote",
  "content": {
    "text": {
      "banner-header": "",
      "banner-subheader": "",
      "description": "",
      "header": "",
      "title": "",
    },
    "images": {
"banner": "",
"gallery": [],
"thumbnail": "",
},
"location": "In Grand Luxxe Tower 1, Ground Floor",
"times":  {
          "days": "Monday - Sunday",
          "hours": "5:30 PM – 11 PM",
        },
  }
},
"gong": {
  "address": "/dining/fine/gong",
  "content": {
    "text": {
      "banner-header": "",
      "banner-subheader": "",
      "description": "",
      "header": "",
      "title": "",
    },
    "images": {
"banner": "",
"gallery": [],
"thumbnail": "",
},
"location": "By The Grand Mayan",
"times":  {
          "days": "Monday - Sunday",
          "hours": "5:30 PM – 11 PM",
        },
  }
},
"quinto charcoal grill": {
  "address": "/dining/fine/quinto-charcoal-grill",
  "content": {
    "text": {
      "banner-header": "",
      "banner-subheader": "",
      "description": "",
      "header": "",
      "title": "",
    },
    "images": {
"banner": "",
"gallery": [],
"thumbnail": "",
},
"location": "Sky Lounge at Grand Luxxe Tower 5",
"times":  {
          "days": "Monday - Sunday",
          "hours": "11 AM – 11 PM",
        },
  }
},
"the burger custom made": {
  "address": "/dining/fine/the-burger-custom-made",
  "content": {
    "text": {
      "banner-header": "",
      "banner-subheader": "",
      "description": "",
      "header": "",
      "title": "",
    },
    "images": {
"banner": "",
"gallery": [],
"thumbnail": "",
},
"location": "At Grand Luxxe Punta Tower",
"times":  {
          "days": "Monday - Sunday",
          "hours": "5:30 PM – 11 PM",
        },
  }
},
"tramonto": {
  "address": "/dining/fine/tramonto",
  "content": {
    "text": {
      "banner-header": "",
      "banner-subheader": "",
      "description": "",
      "header": "",
      "title": "",
    },
    "images": {
"banner": "",
"gallery": [],
"thumbnail": "",
},
"location": "By The Grand Mayan Lobby",
"times":  {
          "days": "Monday - Sunday",
          "hours": "5:30 PM – 1 AM",
        },
  }
},
"casual dining": {
  "address": "/dining/casual",
  "content": {
    "text": {
      "banner-header": "",
      "banner-subheader": "",
      "description": "",
      "header": "",
      "title": "",
    },
    "images": {
"banner": "",
"gallery": [],
"thumbnail": "",
},
},
"acqua": {
  "address": "/dining/casual/",
  "content": {
    "text": {
      "banner-header": "",
      "banner-subheader": "",
      "description": "",
      "header": "",
      "title": "",
    },
    "images": {
"banner": "",
"gallery": [],
"thumbnail": "",
},
"location": "By Sea Garden",
"times":  {
          "days": "Monday - Sunday",
          "hours": "11 AM – 7 PM",
        },
  }
},
"ameca-social-house": {
  "address": "/dining/casual/",
  "content": {
    "text": {
      "banner-header": "",
      "banner-subheader": "",
      "description": "",
      "header": "",
      "title": "",
    },
    "images": {
"banner": "",
"gallery": [],
"thumbnail": "",
},
"location": "At Grand Luxxe Residence Tower",
"times":  {
          "days": "Monday - Sunday",
          "hours": "6 AM – 10 PM",
        },
  }
},
"balance": {
  "address": "/dining/casual/",
  "content": {
    "text": {
      "banner-header": "",
      "banner-subheader": "",
      "description": "",
      "header": "",
      "title": "",
    },
    "images": {
"banner": "",
"gallery": [],
"thumbnail": "",
},
"location": "In Grand Luxxe Tower 1, Ground Floor",
"times":  {
          "days": "Monday - Sunday",
          "hours": "7:15 AM – 10:45 PM",
        },
  }
},
"balche": {
  "address": "/dining/casual/",
  "content": {
    "text": {
      "banner-header": "",
      "banner-subheader": "",
      "description": "",
      "header": "",
      "title": "",
    },
    "images": {
"banner": "",
"gallery": [],
"thumbnail": "",
},
"location": "At the Mayan Palace Pool",
"times":  {
          "days": "Monday - Sunday",
          "hours": "11 AM – 6 PM",
        },
  }
},
"limon y sal": {
  "address": "/dining/casual/",
  "content": {
    "text": {
      "banner-header": "",
      "banner-subheader": "",
      "description": "",
      "header": "",
      "title": "",
    },
    "images": {
"banner": "",
"gallery": [],
"thumbnail": "",
},

  }
},
"cafe del lago": {
  "address": "/dining/casual/",
  "content": {
    "text": {
      "banner-header": "",
      "banner-subheader": "",
      "description": "",
      "header": "",
      "title": "",
    },
    "images": {
"banner": "",
"gallery": [],
"thumbnail": "",
},
"location": "By La Plaza",
"times":  {
          "days": "Monday - Sunday",
          "hours": "7 AM – 12 PM",
        },
  }
},
"chiringuito": {
  "address": "/dining/casual/",
  "content": {
    "text": {
      "banner-header": "",
      "banner-subheader": "",
      "description": "",
      "header": "",
      "title": "",
    },
    "images": {
"banner": "",
"gallery": [],
"thumbnail": "",
},

  }
},
"fresh co": {
  "address": "/dining/casual/",
  "content": {
    "text": {
      "banner-header": "",
      "banner-subheader": "",
      "description": "",
      "header": "",
      "title": "",
    },
    "images": {
"banner": "",
"gallery": [],
"thumbnail": "",
},
"location": "By The Grand Mayan Lobby",
"times":  {
          "days": "Monday - Sunday",
          "hours": "5:30 PM – 11 PM",
        },
  }
},
"havana moon": {
  "address": "/dining/casual/",
  "content": {
    "text": {
      "banner-header": "",
      "banner-subheader": "",
      "description": "",
      "header": "",
      "title": "",
    },
    "images": {
"banner": "",
"gallery": [],
"thumbnail": "",
},
"location": "By The Grand Bliss Pool",
"times":  {
          "days": "Monday - Sunday",
          "hours": "5:30 PM – 11 PM",
        },
  }
},
"li fornio di Gio": {
  "address": "/dining/casual/",
  "content": {
    "text": {
      "banner-header": "",
      "banner-subheader": "",
      "description": "",
      "header": "",
      "title": "",
    },
    "images": {
"banner": "",
"gallery": [],
"thumbnail": "",
},
"location": "Based Out of the Havana Moon Kitchen",
"times":  {
          "days": "Monday - Sunday",
          "hours": "11 AM – 11 PM",
        },
  }
},
"La Cantina": {
  "address": "/dining/casual/",
  "content": {
    "text": {
      "banner-header": "",
      "banner-subheader": "",
      "description": "",
      "header": "",
      "title": "",
    },
    "images": {
"banner": "",
"gallery": [],
"thumbnail": "",
},
"location": "Next to The Grand Mayan",
"times":  {
          "days": "Monday - Sunday",
          "hours": "12 PM – 1 AM",
        },
  }
},
"Ola Mulata": {
  "address": "/dining/casual/",
  "content": {
    "text": {
      "banner-header": "",
      "banner-subheader": "",
      "description": "",
      "header": "",
      "title": "",
    },
    "images": {
"banner": "",
"gallery": [],
"thumbnail": "",
},
"location": "By The Grand Mayan Aqua Park",
"days": "Monday - Sunday",
"hours": "11 AM – 7 PM",
  }
},
"Rummba": {
  "address": "/dining/casual/",
  "content": {
    "text": {
      "banner-header": "",
      "banner-subheader": "",
      "description": "",
      "header": "",
      "title": "",
    },
    "images": {
"banner": "",
"gallery": [],
"thumbnail": "",
},
"location": "By Sea Garden",
"times":  {
          "days": "Monday - Sunday",
          "hours": "7 PM – 11 PM",
        },
  }
},
"Samba": {
  "address": "/dining/casual/",
  "content": {
    "text": {
      "banner-header": "",
      "banner-subheader": "",
      "description": "",
      "header": "",
      "title": "",
    },
    "images": {
"banner": "",
"gallery": [],
"thumbnail": "",
},
"location": "By The Grand Mayan Pool",
"times":  {
          "days": "Monday - Sunday",
          "hours": "7 PM – 11 PM",
        },
  }
},
"Si Snack": {
  "address": "/dining/casual/",
  "content": {
    "text": {
      "banner-header": "",
      "banner-subheader": "",
      "description": "",
      "header": "",
      "title": "",
    },
    "images": {
"banner": "",
"gallery": [],
"thumbnail": "",
},
"location": "By The Grand Mayan Lobby",
"times":  {
          "days": "Monday - Sunday",
          "hours": "12 PM – 6 PM",
        },
  }
},
"Sweet Paris": {
  "address": "/dining/casual/",
  "content": {
    "text": {
      "banner-header": "",
      "banner-subheader": "",
      "description": "",
      "header": "",
      "title": "",
    },
    "images": {
"banner": "",
"gallery": [],
"thumbnail": "",
},
"location": "1st floor of La Plaza",
"times":  {
          "days": "Monday - Sunday",
          "hours": "7:15 AM – 10:45 PM",
        },
  }
},
"sky garden": {
  "address": "/dining/casual/",
  "content": {
    "text": {
      "banner-header": "",
      "banner-subheader": "",
      "description": "",
      "header": "",
      "title": "",
    },
    "images": {
"banner": "",
"gallery": [],
"thumbnail": "",
},
"location": "The Roof of Grand Luxxe Residence Tower",
"times":  {
          "days": "Monday - Sunday",
          "hours": "11 AM – 6 PM",
        },
  }
},
"tacos break": {
  "address": "/dining/casual/",
  "content": {
    "text": {
      "banner-header": "",
      "banner-subheader": "",
      "description": "",
      "header": "",
      "title": "",
    },
    "images": {
"banner": "",
"gallery": [],
"thumbnail": "",
},
"location": "The Roof of Grand Luxxe Residence Tower",
"times":  {
          "days": "Monday - Sunday",
          "hours": "1 PM – 10:45 PM",
        },
  }
},
"bars": {
  "address": "/dining/bars/",
  "content": {
    "text": {
      "banner-header": "",
      "banner-subheader": "",
      "description": "",
      "header": "Cheers To Vacation",
      "title": "",
    },
    "images": {
"banner": "",
"gallery": [],
"thumbnail": "bars-thumbnails.jpg",
},

  }
},
"pool bars": {
  "address": "/dining/bars/pool-bars",
  "content": {
    "text": {
      "banner-header": "",
      "banner-subheader": "",
      "description": "",
      "header": "",
      "title": "",
    },
    "images": {
"banner": "",
"gallery": [],
"thumbnail": "",
},
"location": "At La Plaza, 3rd Floor",
"times":  {
          "days": "Monday - Sunday",
          "hours": "7 AM - 11 PM",
        },
  }
},
"blue nautique bars": {
  "address": "/dining/bars/",
  "content": {
    "text": {
      "banner-header": "",
      "banner-subheader": "",
      "description": "",
      "header": "",
      "title": "",
    },
    "images": {
"banner": "",
"gallery": [],
"thumbnail": "",
},
"location": "Sea Garden",
"times":  {
          "days": "Monday - Sunday",
          "hours": "5 PM – 1 AM",
        },
  }
},
"grand vista bars": {
  "address": "/dining/bars/",
  "content": {
    "text": {
      "banner-header": "",
      "banner-subheader": "",
      "description": "",
      "header": "",
      "title": "",
    },
    "images": {
"banner": "",
"gallery": [],
"thumbnail": "",
},
"location": "In Grand Luxxe Tower 1, Ground Floor",
"times":  {
          "days": "Monday - Sunday",
          "hours": "5:30 PM – 11 PM"
        },
  }
},
"library bar": {
  "address": "/dining/bars/",
  "content": {
    "text": {
      "banner-header": "",
      "banner-subheader": "",
      "description": "",
      "header": "",
      "title": "",
    },
    "images": {
      "banner": "",
      "gallery": [],
      "thumbnail": "",
    },
  "location": "Inside Tramonto, Located in The Grand Mayan",
  "times":  {
    "days": "Monday - Sunday",
    "hours": "5:30 PM – 11 PM",
            },
      }
},
"luxxe bar": {
  "address": "/dining/bars/",
  "content": {
    "text": {
      "banner-header": "",
      "banner-subheader": "",
      "description": "",
      "header": "",
      "title": "",
    },
    "images": {
"banner": "",
"gallery": [],
"thumbnail": "",
},
"location": "In Grand Luxxe Tower 1, by Epazote",
"times":  {
  "days": ["Monday - Sunday", "Friday – Sunday"],
  "hours": ["5:30 PM – 1 AM", "11 AM – 11 PM"]
          },
    },
  }
},
"the grand lobby bar": {
  "address": "/dining/bars/",
  "content": {
    "text": {
      "banner-header": "",
      "banner-subheader": "",
      "description": "",
      "header": "",
      "title": "",
    },
    "images": {
"banner": "",
"gallery": [],
"thumbnail": "",
},
"location": "The Grand Mayan Lobby",
"times":  {
"days": ["Monday - Sunday", "Friday – Sunday"],
"hours": ["3 PM – 11 PM", "11 AM – 11 PM"]
        },
  }
},
"santuario": {
  "address": "/dining/bars/",
  "content": {
    "text": {
      "banner-header": "",
      "banner-subheader": "",
      "description": "",
      "header": "",
      "title": "",
    },
    "images": {
"banner": "",
"gallery": [],
"thumbnail": "",
},

  }
},
"la isla de cococs": {
  "address": "/dining/bars/la-isla-de-cocos",
  "content": {
    "text": {
      "banner-header": "",
      "banner-subheader": "",
      "description": "",
      "header": "",
      "title": "",
    },
    "images": {
"banner": "",
"gallery": [],
"thumbnail": "",
},

  }
},
"in room": {
  "address": "/dining/in-room",
  "content": {
    "text": {
      "banner-header": "",
      "banner-subheader": "",
      "description": "",
      "header": "",
      "title": "",
    },
    "images": {
"banner": "",
"gallery": [],
"thumbnail": "",
},

  }
},
"room service": {
  "address": "/dining/in-room/room-service",
  "content": {
    "text": {
      "banner-header": "",
      "banner-subheader": "",
      "description": "",
      "header": "",
      "title": "",
    },
    "images": {
"banner": "",
"gallery": [],
"thumbnail": "",
},

  }
},
"entertainment": {
  "address": "/entertainment",
  "content": {
    "text": {
      "banner-header": "",
      "banner-subheader": "",
      "description": "",
      "header": "",
      "title": "",
    },
    "images": {
"banner": "",
"gallery": [],
"thumbnail": "",
},

  }
},
"santuario": {
  "address": "entertainment/santuario",
  "content": {
    "text": {
      "banner-header": "",
      "banner-subheader": "",
      "description": "",
      "header": "",
      "title": "",
    },
    "images": {
"banner": "",
"gallery": [],
"thumbnail": "",
},

  }
},
"the parks": {
  "address": "/entertainment/the-parks",
  "content": {
    "text": {
      "banner-header": "",
      "banner-subheader": "",
      "description": "",
      "header": "",
      "title": "",
    },
    "images": {
"banner": "",
"gallery": [],
"thumbnail": "",
},

  }
},
"getting here": {
  "address": "",
  "content": {
    "text": {
      "banner-header": "",
      "banner-subheader": "",
      "description": "",
      "header": "",
      "title": "",
    },
    "images": {
"banner": "",
"gallery": [],
"thumbnail": "",
},

  }
},
"what to do": {
  "address": "/what-to-do",
  "content": {
    "text": {
      "banner-header": "",
      "banner-subheader": "",
      "description": "",
      "header": "",
      "title": "",
    },
    "images": {
"banner": "",
"gallery": [],
"thumbnail": "",
},

  }
},
"shopping": {
  "address": "/what-to-do/shopping",
  "content": {
    "text": {
      "banner-header": "",
      "banner-subheader": "",
      "description": "",
      "header": "",
      "title": "",
    },
    "images": {
"banner": "",
"gallery": [],
"thumbnail": "",
},

  }
},
"activities": {
  "address": "/what-to-do/activities",
  "content": {
    "text": {
      "banner-header": "",
      "banner-subheader": "",
      "description": "",
      "header": "",
      "title": "",
    },
    "images": {
"banner": "",
"gallery": [],
"thumbnail": "",
},

  }
},
"pools": {
  "address": "/pools",
  "content": {
    "text": {
      "banner-header": "",
      "banner-subheader": "",
      "description": "",
      "header": "",
      "title": "",
    },
    "images": {
"banner": "",
"gallery": [],
"thumbnail": "",
},

  }
},
"golf": {
  "address": "/golf",
  "content": {
    "text": {
      "banner-header": "",
      "banner-subheader": "",
      "description": "",
      "header": "",
      "title": "",
    },
    "images": {
"banner": "",
"gallery": [],
"thumbnail": "",
},

  }
},
"the nayar course": {
  "address": "/golf/the-nayar-course",
  "content": {
    "text": {
      "banner-header": "",
      "banner-subheader": "",
      "description": "",
      "header": "",
      "title": "",
    },
    "images": {
"banner": "",
"gallery": [],
"thumbnail": "",
},

  }
},
"the norman signature course": {
  "address": "/golf/the-norman-signature-course",
  "content": {
    "text": {
      "banner-header": "",
      "banner-subheader": "",
      "description": "",
      "header": "",
      "title": "",
    },
    "images": {
"banner": "",
"gallery": [],
"thumbnail": "",
},

  }
},
"the jack nicklaus academy of golf": {
  "address": "/golf/the jack nicklaus academy of golf",
  "content": {
    "text": {
      "banner-header": "",
      "banner-subheader": "",
      "description": "",
      "header": "",
      "title": "",
    },
    "images": {
"banner": "",
"gallery": [],
"thumbnail": "",
},

  }
},
"tournaments": {
  "address": "/golf/tournaments",
  "content": {
    "text": {
      "banner-header": "",
      "banner-subheader": "",
      "description": "",
      "header": "",
      "title": "",
    },
    "images": {
"banner": "",
"gallery": [],
"thumbnail": "",
},

  }
},
"spa": {
  "address": "/spa",
  "content": {
    "text": {
      "banner-header": "",
      "banner-subheader": "",
      "description": "",
      "header": "",
      "title": "",
    },
    "images": {
"banner": "",
"gallery": [],
"thumbnail": "",
},

  }
},
"brio spa": {
  "address": "/spa/brio spa",
  "content": {
    "text": {
      "banner-header": "",
      "banner-subheader": "",
      "description": "",
      "header": "",
      "title": "",
    },
    "images": {
"banner": "",
"gallery": [],
"thumbnail": "",
},

  }
},
"spatium": {
  "address": "/spa/spatium",
  "content": {
    "text": {
      "banner-header": "",
      "banner-subheader": "",
      "description": "",
      "header": "",
      "title": "",
    },
    "images": {
"banner": "",
"gallery": [],
"thumbnail": "",
},

  }
},
"entertainment": {
  "address": "/entertainment",
  "content": {
    "text": {
      "banner-header": "",
      "banner-subheader": "",
      "description": "",
      "header": "",
      "title": "",
    },
    "images": {
"banner": "",
"gallery": [],
"thumbnail": "",
},

  }
},
"rooms": {
  "address": "/rooms",
  "content": {
    "text": {
      "banner-header": "",
      "banner-subheader": "",
      "description": "",
      "header": "",
      "title": "",
    },
    "images": {
"banner": "",
"gallery": [],
"thumbnail": "",
},

  }
},
"three bedroom presidential villa": {
  "address": "/rooms/three-bedroom-presidential-villa",
  "content": {
    "text": {
      "banner-header": "",
      "banner-subheader": "",
      "description": "",
      "header": "",
      "title": "",
    },
    "images": {
"banner": "",
"gallery": [],
"thumbnail": "",
},

  }
},

}
